{
  "description": "sample Github_easy/o33193.json",
  "meta": {
    "full_size": 415,
    "stripped_size": 395,
    "features": [],
    "raw_features": [
      "properties",
      "type",
      "type:integer",
      "type:number",
      "type:object",
      "type:string"
    ]
  },
  "schema": {
    "properties": {
      "city": {
        "type": "string"
      },
      "closetime": {
        "type": "string"
      },
      "days": {
        "type": "string"
      },
      "latitude": {
        "type": "number"
      },
      "longitude": {
        "type": "number"
      },
      "name": {
        "type": "string"
      },
      "opentime": {
        "type": "string"
      },
      "sitecoordinator": {
        "type": "integer"
      },
      "sitestatus": {
        "type": "string"
      },
      "slug": {
        "type": "string"
      },
      "state": {
        "type": "string"
      },
      "street": {
        "type": "string"
      },
      "zip": {
        "type": "string"
      }
    },
    "title": "ValidSite",
    "type": "object"
  },
  "tests": [
    {
      "description": "llama 70b generated valid",
      "valid": true,
      "data": {
        "city": "New York",
        "closetime": "17:00",
        "days": "Monday to Friday",
        "latitude": 40.7128,
        "longitude": -74.006,
        "name": "NYC Site",
        "opentime": "08:00",
        "sitecoordinator": 12345,
        "sitestatus": "Active",
        "slug": "nyc-site",
        "state": "NY",
        "street": "123 Main St",
        "zip": "10001"
      }
    },
    {
      "description": "llama-70b generated negative",
      "valid": false,
      "rust_error": "\"12345\" is not of type \"integer\"",
      "python_error": "'12345' is not of type 'integer'\n\nFailed validating 'type' in schema['properties']['sitecoordinator']:\n    {'type': 'integer'}\n\nOn instance['sitecoordinator']:\n    '12345'",
      "data": {
        "city": "New York",
        "closetime": "17:00",
        "days": "Monday to Friday",
        "latitude": 40.7128,
        "longitude": -74.006,
        "name": "NYC Site",
        "opentime": "08:00",
        "sitecoordinator": "12345",
        "sitestatus": "Active",
        "slug": "nyc-site",
        "state": "NY",
        "street": "123 Main St",
        "zip": "10001"
      }
    },
    {
      "description": "llama-70b generated negative",
      "valid": false,
      "rust_error": "12345.5 is not of type \"integer\"",
      "python_error": "12345.5 is not of type 'integer'\n\nFailed validating 'type' in schema['properties']['sitecoordinator']:\n    {'type': 'integer'}\n\nOn instance['sitecoordinator']:\n    12345.5",
      "data": {
        "city": "New York",
        "closetime": "17:00",
        "days": "Monday to Friday",
        "latitude": 40.7128,
        "longitude": -74.006,
        "name": "NYC Site",
        "opentime": "08:00",
        "sitecoordinator": 12345.5,
        "sitestatus": "Active",
        "slug": "nyc-site",
        "state": "NY",
        "street": "123 Main St",
        "zip": "10001"
      }
    },
    {
      "description": "llama 70b generated positive",
      "valid": true,
      "data": {
        "city": "New York",
        "closetime": "17:00",
        "days": "Monday to Friday",
        "latitude": 40.7128,
        "longitude": -74.006,
        "name": "Example Site",
        "opentime": "08:00",
        "sitecoordinator": 12345,
        "sitestatus": "Active",
        "slug": "example-site",
        "state": "NY",
        "street": "123 Main St",
        "zip": "10001"
      }
    },
    {
      "description": "llama-70b generated negative",
      "valid": false,
      "rust_error": "\"not a number\" is not of type \"number\"",
      "python_error": "'not an integer' is not of type 'integer'\n\nFailed validating 'type' in schema['properties']['sitecoordinator']:\n    {'type': 'integer'}\n\nOn instance['sitecoordinator']:\n    'not an integer'",
      "data": {
        "city": "New York",
        "closetime": "17:00",
        "days": "Monday to Friday",
        "latitude": "not a number",
        "longitude": -74.006,
        "name": "Example Site",
        "opentime": "08:00",
        "sitecoordinator": "not an integer",
        "sitestatus": "Active",
        "slug": "example-site",
        "state": "NY",
        "street": "123 Main St",
        "zip": "10001"
      }
    }
  ]
}